timestamp, drone_position_x, drone_position_y, drone_position_z, drone_quaternion_x, drone_quaternion_y, drone_quaternion_z, drone_quaternion_w, speed_x, speed_y, speed_z, gyro_pitch, gyro_roll, gyro_yaw, input_throttle, input_yaw, input_pitch, input_roll, battery_percentage, battery_voltage, motor_rpm_count, motor_left_front, motor_right_front, motor_left_back, motor_right_back
Listening for UDP packets on port 9998...
104.72396087646484,1037.44921875,-0.008956436067819595,970.9642333984375,-0.9825534837738382,-2.225268910943527,-0.08421691726963719,-0.000351519207470119,-0.00036644190549850464,-8.142934530042112e-05,-0.05482244864106178,0.9017184972763062,-0.057181645184755325,-1.0,0.0,0.0,-0.0,1.0,0.0,1566.3218994140625,1566.3218994140625,1566.3218994140625,1566.3218994140625
104.73396301269531,1037.44921875,-0.008956152945756912,970.9642333984375,-0.9830495191460993,-2.225660791133557,-0.08397606798597465,-0.00038272759411484003,-0.0004044845700263977,-9.557300654705614e-05,-0.0803617537021637,0.9741902947425842,-0.059664130210876465,-1.0,0.0,0.0,-0.0,1.0,0.0,1566.3218994140625,1566.3218994140625,1566.3218994140625,1566.3218994140625
104.74396514892578,1037.44921875,-0.008956372737884521,970.9642333984375,-0.9826853310071536,-2.2260502838679677,-0.08454124660075604,-0.0003503079933580011,-0.0003653094172477722,-8.158909622579813e-05,-0.054660581052303314,0.8985714912414551,-0.05749012902379036,-1.0,0.0,0.0,-0.0,1.0,0.0,1566.3218994140625,1566.3218994140625,1566.3218994140625,1566.3218994140625
104.75396728515625,1037.44921875,-0.008956102654337883,970.9642333984375,-0.9831812224697603,-2.226442338559777,-0.08430178644008642,-0.0003826894680969417,-0.00040443986654281616,-9.557712473906577e-05,-0.08033744990825653,0.9740850925445557,-0.059676483273506165,-1.0,0.0,0.0,-0.0,1.0,0.0,1566.3218994140625,1566.3218994140625,1566.3218994140625,1566.3218994140625
104.76396942138672,1037.44921875,-0.008956320583820343,970.9642333984375,-0.9828171344149954,-2.226831831694032,-0.08486705174913621,-0.0003503076150082052,-0.0003653094172477722,-8.159306889865547e-05,-0.054654061794281006,0.8985658288002014,-0.05749230459332466,-1.0,0.0,0.0,-0.0,1.0,0.0,1566.3218994140625,1566.3218994140625,1566.3218994140625,1566.3218994140625
104.77397155761719,1037.44921875,-0.008956311270594597,970.9642333984375,-0.9833542679295271,-2.227226138013337,-0.08373628983312655,-0.0004224402364343405,-0.0004336535930633545,-9.77262607193552e-05,-0.08129896968603134,1.0684475898742676,-0.061143722385168076,-1.0,0.0,0.0,-0.0,1.0,0.0,1566.3218994140625,1566.3218994140625,1566.3218994140625,1566.3218994140625
104.78397369384766,1037.44921875,-0.00895654410123825,970.9642333984375,-0.9829927304878039,-2.2276084360666375,-0.08425836916151637,-0.00035151728661730886,-0.00036644190549850464,-8.143004379235208e-05,-0.05477949604392052,0.901712954044342,-0.05718553438782692,-1.0,0.0,0.0,-0.0,1.0,0.0,1566.3218994140625,1566.3218994140625,1566.3218994140625,1566.3218994140625
104.79397583007812,1037.44921875,-0.008955921977758408,970.9642333984375,-0.9833780354033785,-2.227998664829266,-0.08490393585809304,-0.00034324167063459754,-0.00036882609128952026,-9.047240018844604e-05,-0.07235153019428253,0.8801443576812744,-0.058228883892297745,-1.0,0.0,0.0,-0.0,1.0,0.0,1566.3218994140625,1566.3218994140625,1566.3218994140625,1566.3218994140625
104.8039779663086,1037.44921875,-0.008955752477049828,970.9642333984375,-0.9823634034027856,-2.2284009481406364,-0.08461864846803153,-0.00038929856964387,-0.0003281831741333008,-5.4620119044557214e-05,0.013574827462434769,0.9878379106521606,-0.05941811203956604,-1.0,0.0,0.0,-0.0,1.0,0.0,1566.3218994140625,1566.3218994140625,1566.3218994140625,1566.3218994140625
104.81398010253906,1037.44921875,-0.008955763652920723,970.9642333984375,-0.9829020807589923,-2.2287844863430886,-0.08342622393588577,-0.0004241493879817426,-0.00043527036905288696,-9.74541762843728e-05,-0.08142166584730148,1.0729316473007202,-0.06067664548754692,-1.0,0.0,0.0,-0.0,1.0,0.0,1566.3218994140625,1566.3218994140625,1566.3218994140625,1566.3218994140625
104.82398223876953,1037.44921875,-0.00895601324737072,970.9642333984375,-0.9825405573087327,-2.229166290848677,-0.08394673747234005,-0.0003515559947118163,-0.0003664866089820862,-8.142144361045212e-05,-0.05475468561053276,0.9018294811248779,-0.05716677010059357,-1.0,0.0,0.0,-0.0,1.0,0.0,1566.3218994140625,1566.3218994140625,1566.3218994140625,1566.3218994140625
104.833984375,1037.44921875,-0.008955728262662888,970.9642333984375,-0.9830365967011766,-2.2295581724539946,-0.08370616512220672,-0.00038271528319455683,-0.0004044771194458008,-9.557681914884597e-05,-0.08029147982597351,0.974173367023468,-0.05966366454958916,-1.0,0.0,0.0,-0.0,1.0,0.0,1566.3218994140625,1566.3218994140625,1566.3218994140625,1566.3218994140625
104.84398651123047,1037.44921875,-0.008955946192145348,970.9642333984375,-0.9826723869072337,-2.22994766729957,-0.08427150468684429,-0.00035030196886509657,-0.0003653019666671753,-8.159804565366358e-05,-0.054606176912784576,0.8985670208930969,-0.0574905164539814,-1.0,0.0,0.0,-0.0,1.0,0.0,1566.3218994140625,1566.3218994140625,1566.3218994140625,1566.3218994140625
104.85398864746094,1037.44921875,-0.008956493809819221,970.9642333984375,-0.9824158702103811,-2.230343347110597,-0.08398116859506452,-0.0003889059880748391,-0.00040014833211898804,-8.677820733282715e-05,-0.06243608146905899,0.9903686046600342,-0.059110820293426514,-1.0,0.0,0.0,-0.0,1.0,0.0,1566.3218994140625,1566.3218994140625,1566.3218994140625,1566.3218994140625
104.8639907836914,1037.44921875,-0.008956225588917732,970.9642333984375,-0.9829145997396125,-2.230728919992308,-0.08370146341105421,-0.0003838178818114102,-0.00040550529956817627,-9.543728083372116e-05,-0.0803980678319931,0.9770260453224182,-0.05939257889986038,-1.0,0.0,0.0,-0.0,1.0,0.0,1566.3218994140625,1566.3218994140625,1566.3218994140625,1566.3218994140625
104.87399291992188,1037.44921875,-0.008956443518400192,970.9642333984375,-0.9825504122871196,-2.231118188518406,-0.08426536307112314,-0.00035034259781241417,-0.0003653392195701599,-8.159047138178721e-05,-0.05458195134997368,0.8986742496490479,-0.05748024955391884,-1.0,0.0,0.0,-0.0,1.0,0.0,1566.3218994140625,1566.3218994140625,1566.3218994140625,1566.3218994140625
104.88399505615234,1037.44921875,-0.00895615853369236,970.9642333984375,-0.9830464362179457,-2.2315102931742747,-0.08402574145192568,-0.0003826924366876483,-0.0004044473171234131,-9.558945021126419e-05,-0.08026308566331863,0.9741082787513733,-0.059675149619579315,-1.0,0.0,0.0,-0.0,1.0,0.0,1566.3218994140625,1566.3218994140625,1566.3218994140625,1566.3218994140625
104.89399719238281,1037.44921875,-0.008956393226981163,970.9642333984375,-0.9826822073370107,-2.2318997334613067,-0.08459095970919886,-0.00035030668368563056,-0.0003653019666671753,-8.159541175700724e-05,-0.05456170439720154,0.8985754251480103,-0.057491790503263474,-1.0,0.0,0.0,-0.0,1.0,0.0,1566.3218994140625,1566.3218994140625,1566.3218994140625,1566.3218994140625
104.90399932861328,1037.44921875,-0.00895610824227333,970.9642333984375,-0.9831781219314861,-2.232291840571528,-0.08435149995977098,-0.0003826895263046026,-0.0004044473171234131,-9.558635065332055e-05,-0.08023863285779953,0.97409588098526,-0.05967756360769272,-1.0,0.0,0.0,-0.0,1.0,0.0,1566.3218994140625,1566.3218994140625,1566.3218994140625,1566.3218994140625
104.91400146484375,1037.44921875,-0.00895632803440094,970.9642333984375,-0.9828138993225922,-2.2326813327151322,-0.08491668457254159,-0.0003503095358610153,-0.0003653019666671753,-8.160049037542194e-05,-0.054558996111154556,0.8985779881477356,-0.05749339982867241,-1.0,0.0,0.0,-0.0,1.0,0.0,1566.3218994140625,1566.3218994140625,1566.3218994140625,1566.3218994140625
104.92400360107422,1037.44921875,-0.008956318721175194,970.9642333984375,-0.9833509839520111,-2.2330756396708824,-0.08378593463260306,-0.00042243924690410495,-0.00043364614248275757,-9.773382043931633e-05,-0.08118676394224167,1.0684555768966675,-0.061144694685935974,-1.0,0.0,0.0,-0.0,1.0,0.0,1566.3218994140625,1566.3218994140625,1566.3218994140625,1566.3218994140625
104.93400573730469,1037.44921875,-0.008956551551818848,970.9642333984375,-0.9829893126038597,-2.2334579374303045,-0.0843080134277689,-0.000351516529917717,-0.0003664270043373108,-8.143649029079825e-05,-0.05468204244971275,0.9017191529273987,-0.05718665197491646,-1.0,0.0,0.0,-0.0,1.0,0.0,1566.3218994140625,1566.3218994140625,1566.3218994140625,1566.3218994140625
104.94400787353516,1037.44921875,-0.008955927565693855,970.9642333984375,-0.9833744775808932,-2.233848166768342,-0.08495360438802954,-0.000343239022186026,-0.00036881864070892334,-9.047861385624856e-05,-0.07225608080625534,0.8801476955413818,-0.05822973698377609,-1.0,0.0,0.0,-0.0,1.0,0.0,1566.3218994140625,1566.3218994140625,1566.3218994140625,1566.3218994140625
104.95401000976562,1037.44921875,-0.008955758064985275,970.9642333984375,-0.982359750648949,-2.2342504498651903,-0.08466839648204798,-0.0003892953391186893,-0.00032816827297210693,-5.462533954414539e-05,0.013684726320207119,0.9878308773040771,-0.05941933020949364,-1.0,0.0,0.0,-0.0,1.0,0.0,1566.3218994140625,1566.3218994140625,1566.3218994140625,1566.3218994140625
104.9640121459961,1037.44921875,-0.008955784142017365,970.9642333984375,-0.9828982633059964,-2.2346339364628123,-0.08347606696834814,-0.0004241441492922604,-0.00043526291847229004,-9.745985153131187e-05,-0.0813056007027626,1.0729295015335083,-0.06067743897438049,-1.0,0.0,0.0,-0.0,1.0,0.0,1566.3218994140625,1566.3218994140625,1566.3218994140625,1566.3218994140625
104.97401428222656,1037.44921875,-0.008956018835306168,970.9642333984375,-0.9825367253852563,-2.235015792064942,-0.083996476988173,-0.000351559225236997,-0.00036647170782089233,-8.142869046423584e-05,-0.054658353328704834,0.9018444418907166,-0.05716804414987564,-1.0,0.0,0.0,-0.0,1.0,0.0,1566.3218994140625,1566.3218994140625,1566.3218994140625,1566.3218994140625
104.98401641845703,1037.44921875,-0.008955733850598335,970.9642333984375,-0.9830325629796097,-2.2354076744701743,-0.08375595246307234,-0.00038271350786089897,-0.00040446221828460693,-9.558346937410533e-05,-0.08018747717142105,0.9741799831390381,-0.0596645325422287,-1.0,0.0,0.0,-0.0,1.0,0.0,1566.3218994140625,1566.3218994140625,1566.3218994140625,1566.3218994140625
104.9940185546875,1037.44921875,-0.008955951780080795,970.9642333984375,-0.9826683220728065,-2.235797169843702,-0.08432138014061721,-0.00035029678838327527,-0.00036529451608657837,-8.160401921486482e-05,-0.05450811982154846,0.8985623121261597,-0.05749152973294258,-1.0,0.0,0.0,-0.0,1.0,0.0,1566.3218994140625,1566.3218994140625,1566.3218994140625,1566.3218994140625
105.00402069091797,1037.44921875,-0.00895616039633751,970.9642333984375,-0.9823006961821112,-2.2361909786704586,-0.08491769261824006,-0.00034940987825393677,-0.00036447495222091675,-8.167598571162671e-05,-0.05436229333281517,0.8963053226470947,-0.05767378956079483,-1.0,0.0,0.0,-0.0,1.0,0.0,1566.3218994140625,1566.3218994140625,1566.3218994140625,1566.3218994140625
105.01402282714844,1037.44921875,-0.008956149220466614,970.9642333984375,-0.9828376866804318,-2.2365855139489947,-0.08378807764083056,-0.0004224056319799274,-0.00043360888957977295,-9.774312638910487e-05,-0.08111660927534103,1.0683807134628296,-0.06114887073636055,-1.0,0.0,0.0,-0.0,1.0,0.0,1566.3218994140625,1566.3218994140625,1566.3218994140625,1566.3218994140625
105.0240249633789,1037.44921875,-0.008956395089626312,970.9642333984375,-0.9824759847502802,-2.2369677578077645,-0.08431034862373837,-0.00035150913754478097,-0.00036641210317611694,-8.144177263602614e-05,-0.05462576076388359,0.9017110466957092,-0.057183779776096344,-1.0,0.0,0.0,-0.0,1.0,0.0,1566.3218994140625,1566.3218994140625,1566.3218994140625,1566.3218994140625
105.03402709960938,1037.44921875,-0.00895611196756363,970.9642333984375,-0.9829718220947947,-2.2373596432883662,-0.08406999911575548,-0.00038270847289822996,-0.00040446221828460693,-9.558699821354821e-05,-0.0801549106836319,0.9741671681404114,-0.05966547131538391,-1.0,0.0,0.0,-0.0,1.0,0.0,1566.3218994140625,1566.3218994140625,1566.3218994140625,1566.3218994140625
105.04402923583984,1037.44921875,-0.008956331759691238,970.9642333984375,-0.9826074621098944,-2.237749137921671,-0.08463550496637932,-0.00035029591526836157,-0.00036529451608657837,-8.160393917933106e-05,-0.054469600319862366,0.8985589146614075,-0.057492297142744064,-1.0,0.0,0.0,-0.0,1.0,0.0,1566.3218994140625,1566.3218994140625,1566.3218994140625,1566.3218994140625
105.05403137207031,1037.44921875,-0.008956046774983406,970.9642333984375,-0.9831032741372445,-2.2381412493055635,-0.08439647503905323,-0.0003826741885859519,-0.0004044249653816223,-9.559236787026748e-05,-0.08013278245925903,0.9740713238716125,-0.0596780925989151,-1.0,0.0,0.0,-0.0,1.0,0.0,1566.3218994140625,1566.3218994140625,1566.3218994140625,1566.3218994140625
105.06403350830078,1037.44921875,-0.008956264704465866,970.9642333984375,-0.9827388006540596,-2.2385307442440374,-0.08496207015773778,-0.0003502952167764306,-0.00036528706550598145,-8.160552533809096e-05,-0.05445823073387146,0.8985528945922852,-0.057494331151247025,-1.0,0.0,0.0,-0.0,1.0,0.0,1566.3218994140625,1566.3218994140625,1566.3218994140625,1566.3218994140625
105.07403564453125,1037.44921875,-0.00895625725388527,970.9642333984375,-0.9832757242404051,-2.238925054824972,-0.08383160998268435,-0.0004224294680170715,-0.00043363869190216064,-9.774140198715031e-05,-0.08107435703277588,1.0684444904327393,-0.061145469546318054,-1.0,0.0,0.0,-0.0,1.0,0.0,1566.3218994140625,1566.3218994140625,1566.3218994140625,1566.3218994140625
105.08403778076172,1037.44921875,-0.008956490084528923,970.9642333984375,-0.9829140180014925,-2.239307355436997,-0.0843540835791228,-0.0003515032585710287,-0.00036641210317611694,-8.144002640619874e-05,-0.05457661673426628,0.901695966720581,-0.057187728583812714,-1.0,0.0,0.0,-0.0,1.0,0.0,1566.3218994140625,1566.3218994140625,1566.3218994140625,1566.3218994140625
105.09403991699219,1037.44921875,-0.008955880999565125,970.9642333984375,-0.9832990244728992,-2.239697534902547,-0.08500010354490424,-0.00034322444116696715,-0.00036879628896713257,-9.048685751622543e-05,-0.07216547429561615,0.8801244497299194,-0.058230265974998474,-1.0,0.0,0.0,-0.0,1.0,0.0,1566.3218994140625,1566.3218994140625,1566.3218994140625,1566.3218994140625
105.10404205322266,1037.44921875,-0.00895608402788639,970.9642333984375,-0.9829318114185959,-2.240093995038232,-0.08560679128904988,-0.0003491407260298729,-0.00036419928073883057,-8.175802213372663e-05,-0.054297782480716705,0.8955543637275696,-0.05778539553284645,-1.0,0.0,0.0,-0.0,1.0,0.0,1566.3218994140625,1566.3218994140625,1566.3218994140625,1566.3218994140625
105.11404418945312,1037.44921875,-0.008956903591752052,970.9642333984375,-0.9827160802600547,-2.2404921034724055,-0.08442696300440933,-0.0004286079201847315,-0.00042929500341415405,-8.893628546502441e-05,-0.06318358331918716,1.0846024751663208,-0.060592230409383774,-1.0,0.0,0.0,-0.0,1.0,0.0,1566.3218994140625,1566.3218994140625,1566.3218994140625,1566.3218994140625
105.1240463256836,1037.44921875,-0.008955597877502441,970.9642333984375,-0.9823481027816849,-2.24087278675334,-0.08498588724975417,-0.00034618069184944034,-0.0002992376685142517,-5.795850302092731e-05,0.00361743220128119,0.8842892646789551,-0.05784831568598747,-1.0,0.0,0.0,-0.0,1.0,0.0,1566.3218994140625,1566.3218994140625,1566.3218994140625,1566.3218994140625
105.13404846191406,1037.44921875,-0.00895642302930355,970.9642333984375,-0.982131509821396,-2.2412684225594917,-0.08379069917211668,-0.00042902963468804955,-0.00042969733476638794,-8.886560681276023e-05,-0.06319240480661392,1.0857198238372803,-0.06047647073864937,-1.0,0.0,0.0,-0.0,1.0,0.0,1566.3218994140625,1566.3218994140625,1566.3218994140625,1566.3218994140625
105.14405059814453,1037.44921875,-0.008956167846918106,970.9642333984375,-0.9826327124712481,-2.2416465875933302,-0.08346813298727371,-0.0003850159118883312,-0.000406607985496521,-9.528533701086417e-05,-0.08034400641918182,0.9801686406135559,-0.059081483632326126,-1.0,0.0,0.0,-0.0,1.0,0.0,1566.3218994140625,1566.3218994140625,1566.3218994140625,1566.3218994140625
105.154052734375,1037.44921875,-0.008955556899309158,970.9642333984375,-0.983020907323358,-2.242032063838758,-0.08408233283732792,-0.0003441323060542345,-0.00036963820457458496,-9.040752775035799e-05,-0.07225944101810455,0.8824548125267029,-0.05803286284208298,-1.0,0.0,0.0,-0.0,1.0,0.0,1566.3218994140625,1566.3218994140625,1566.3218994140625,1566.3218994140625
105.16405487060547,1037.44921875,-0.008955774828791618,970.9642333984375,-0.9826535841815842,-2.242428250937574,-0.08468817946654349,-0.0003491594106890261,-0.00036422163248062134,-8.175589027814567e-05,-0.054260801523923874,0.8956248164176941,-0.057774629443883896,-1.0,0.0,0.0,-0.0,1.0,0.0,1566.3218994140625,1566.3218994140625,1566.3218994140625,1566.3218994140625
105.17405700683594,1037.44921875,-0.008956318721175194,970.9642333984375,-0.9823966278625732,-2.242824161291359,-0.08439999645530995,-0.0003888389328494668,-0.00040008872747421265,-8.679232269059867e-05,-0.062192153185606,0.9902135133743286,-0.05912391096353531,-1.0,0.0,0.0,-0.0,1.0,0.0,1566.3218994140625,1566.3218994140625,1566.3218994140625,1566.3218994140625
105.1840591430664,1037.44921875,-0.008956050500273705,970.9642333984375,-0.9828950493494605,-2.243209744315344,-0.08412120635942599,-0.00038379087345674634,-0.0004054605960845947,-9.544911154080182e-05,-0.08016736060380936,0.9769807457923889,-0.0593964047729969,-1.0,0.0,0.0,-0.0,1.0,0.0,1566.3218994140625,1566.3218994140625,1566.3218994140625,1566.3218994140625
105.19406127929688,1037.44921875,-0.008956268429756165,970.9642333984375,-0.9825305681810759,-2.24359901839164,-0.08468595577893388,-0.0003503141924738884,-0.00036529451608657837,-8.160377183230594e-05,-0.05437273159623146,0.8986201286315918,-0.05748368054628372,-1.0,0.0,0.0,-0.0,1.0,0.0,1566.3218994140625,1566.3218994140625,1566.3218994140625,1566.3218994140625
105.20406341552734,1037.44921875,-0.008955981582403183,970.9642333984375,-0.9830261723179957,-2.2439911333514573,-0.08444728020271874,-0.0003826619067694992,-0.0004044175148010254,-9.559838508721441e-05,-0.08002728968858719,0.9740540385246277,-0.05967848002910614,-1.0,0.0,0.0,-0.0,1.0,0.0,1566.3218994140625,1566.3218994140625,1566.3218994140625,1566.3218994140625
105.21406555175781,1037.44921875,-0.008956199511885643,970.9642333984375,-0.9826616607682785,-2.2443806314745705,-0.08501331665242966,-0.00035028005368076265,-0.0003652721643447876,-8.160849392879754e-05,-0.05435182526707649,0.8985251784324646,-0.05749530717730522,-1.0,0.0,0.0,-0.0,1.0,0.0,1566.3218994140625,1566.3218994140625,1566.3218994140625,1566.3218994140625
105.22406768798828,1037.44921875,-0.008956190198659897,970.9642333984375,-0.9831983136939879,-2.244774946886271,-0.08388329086085022,-0.0004224145086482167,-0.0004336163401603699,-9.77423187578097e-05,-0.08094637095928192,1.0684200525283813,-0.06114618852734566,-1.0,0.0,0.0,-0.0,1.0,0.0,1566.3218994140625,1566.3218994140625,1566.3218994140625,1566.3218994140625
105.23406982421875,1037.44921875,-0.008956436067819595,970.9642333984375,-0.9828363478849824,-2.2451571962492234,-0.08440618664219267,-0.0003514887357596308,-0.00036638975143432617,-8.144398452714086e-05,-0.054472774267196655,0.9016700387001038,-0.05718864127993584,-1.0,0.0,0.0,-0.0,1.0,0.0,1566.3218994140625,1566.3218994140625,1566.3218994140625,1566.3218994140625
105.24407196044922,1037.44921875,-0.008955813944339752,970.9642333984375,-0.9832211114646161,-2.2455474322119473,-0.08505257707404061,-0.00034321367274969816,-0.0003687739372253418,-9.048583160620183e-05,-0.0720512792468071,0.8801087141036987,-0.05823129788041115,-1.0,0.0,0.0,-0.0,1.0,0.0,1566.3218994140625,1566.3218994140625,1566.3218994140625,1566.3218994140625
105.25407409667969,1037.44921875,-0.008956016972661018,970.9642333984375,-0.9828536469290193,-2.245943894375237,-0.0856595951034851,-0.0003491316456347704,-0.0003641843795776367,-8.176129631465301e-05,-0.05419228971004486,0.8955413103103638,-0.057786524295806885,-1.0,0.0,0.0,-0.0,1.0,0.0,1566.3218994140625,1566.3218994140625,1566.3218994140625,1566.3218994140625
105.26407623291016,1037.44921875,-0.008959554135799408,970.9642333984375,-0.984968855548666,-2.1976354909516402,-0.0757371435193606,0.0009291526512242854,-0.0006453916430473328,0.001139173749834299,0.050206560641527176,0.7382864952087402,1.7258086204528809,-1.0,0.0,0.0,-0.0,1.0,0.0,1566.3218994140625,1566.3218994140625,1566.3218994140625,1566.3218994140625
105.27407836914062,1037.44921875,-0.008956791833043098,970.9642333984375,-0.9831342096934007,-2.1981268424425506,-0.08267808190862508,-9.289453737437725e-05,-7.671117782592773e-05,-2.7327914722263813e-05,0.058954812586307526,0.28288838267326355,-0.054659370332956314,-1.0,0.0,0.0,-0.0,1.0,0.0,1566.3218994140625,1566.3218994140625,1566.3218994140625,1566.3218994140625
105.2840805053711,1037.44921875,-0.008955368772149086,970.9642333984375,-0.9827431917618847,-2.1985630684530686,-0.083568017508733,-0.00033688306575641036,-0.00029059499502182007,-5.912833148613572e-05,0.004065616987645626,0.8601775169372559,-0.060193903744220734,-1.0,0.0,0.0,-0.0,1.0,0.0,1566.3218994140625,1566.3218994140625,1566.3218994140625,1566.3218994140625
105.29408264160156,1037.44921875,-0.008955579251050949,970.9642333984375,-0.982375361345608,-2.1989563951888225,-0.08415754612591501,-0.0003496184363029897,-0.0003647059202194214,-8.162362792063504e-05,-0.054993290454149246,0.8967700004577637,-0.05764564499258995,-1.0,0.0,0.0,-0.0,1.0,0.0,1566.3218994140625,1566.3218994140625,1566.3218994140625,1566.3218994140625
105.30408477783203,1037.44921875,-0.008956413716077805,970.9642333984375,-0.982160537882565,-2.1993542268379667,-0.0829748933429494,-0.0004286956391297281,-0.0004294291138648987,-8.889415039448068e-05,-0.06401780247688293,1.0847750902175903,-0.0605715736746788,-1.0,0.0,0.0,-0.0,1.0,0.0,1566.3218994140625,1566.3218994140625,1566.3218994140625,1566.3218994140625
105.3140869140625,1037.44921875,-0.008956532925367355,970.9642333984375,-0.9833102267270228,-2.1997265317010304,-0.08354172992972363,-0.00034494930878281593,-0.00044276565313339233,-0.00012236754992045462,-0.14912790060043335,0.8879731893539429,-0.057437676936388016,-1.0,0.0,0.0,-0.0,1.0,0.0,1566.3218994140625,1566.3218994140625,1566.3218994140625,1566.3218994140625
105.32408905029297,1037.44921875,-0.008956730365753174,970.9642333984375,-0.9829453544107921,-2.2001265609095513,-0.0841656430901977,-0.0003486895584501326,-0.00036381185054779053,-8.183404861483723e-05,-0.054952472448349,0.8942875266075134,-0.05793900042772293,-1.0,0.0,0.0,-0.0,1.0,0.0,1566.3218994140625,1566.3218994140625,1566.3218994140625,1566.3218994140625
105.33409118652344,1037.44921875,-0.008955394849181175,970.9642333984375,-0.982572778442763,-2.200521396153691,-0.08480716770472625,-0.00034387526102364063,-0.00029712170362472534,-5.823357787448913e-05,0.003232300281524658,0.8782720565795898,-0.05844488739967346,-1.0,0.0,0.0,-0.0,1.0,0.0,1566.3218994140625,1566.3218994140625,1566.3218994140625,1566.3218994140625
105.3440933227539,1037.44921875,-0.008956221863627434,970.9642333984375,-0.9823570448564664,-2.200917245542156,-0.08361211648777642,-0.0004290448850952089,-0.0004297420382499695,-8.883375267032534e-05,-0.0639931783080101,1.0856703519821167,-0.06048901006579399,-1.0,0.0,0.0,-0.0,1.0,0.0,1566.3218994140625,1566.3218994140625,1566.3218994140625,1566.3218994140625
105.35409545898438,1037.44921875,-0.00895596668124199,970.9642333984375,-0.982859133493793,-2.201295388974491,-0.08328737875660298,-0.0003850907669402659,-0.00040671974420547485,-9.524008783046156e-05,-0.08106938749551773,0.9802655577659607,-0.05907563492655754,-1.0,0.0,0.0,-0.0,1.0,0.0,1566.3218994140625,1566.3218994140625,1566.3218994140625,1566.3218994140625
105.36409759521484,1037.44921875,-0.008956201374530792,970.9642333984375,-0.9824956704129341,-2.2016843731929288,-0.08384851726107242,-0.0003504278138279915,-0.00036544352769851685,-8.155331306625158e-05,-0.05508038401603699,0.8988490700721741,-0.05746166780591011,-1.0,0.0,0.0,-0.0,1.0,0.0,1566.3218994140625,1566.3218994140625,1566.3218994140625,1566.3218994140625
105.37409973144531,1037.44921875,-0.00895591638982296,970.9642333984375,-0.9829923010216145,-2.202076462118785,-0.08360739305295,-0.0003827418840955943,-0.0004045218229293823,-9.555302676744759e-05,-0.08078281581401825,0.9741725921630859,-0.05966787785291672,-1.0,0.0,0.0,-0.0,1.0,0.0,1566.3218994140625,1566.3218994140625,1566.3218994140625,1566.3218994140625
105.38410186767578,1037.44921875,-0.00895613618195057,970.9642333984375,-0.9826288058930923,-2.2024659383721974,-0.08417047569267841,-0.0003503788320813328,-0.0003653988242149353,-8.156971307471395e-05,-0.055068936198949814,0.8987086415290833,-0.05748352035880089,-1.0,0.0,0.0,-0.0,1.0,0.0,1566.3218994140625,1566.3218994140625,1566.3218994140625,1566.3218994140625
105.39410400390625,1037.44921875,-0.008956128731369972,970.9642333984375,-0.9831667010497739,-2.202860224192407,-0.08303756977465447,-0.0004225077573210001,-0.00043373554944992065,-9.770371252670884e-05,-0.08178745955228806,1.0685701370239258,-0.06113531067967415,-1.0,0.0,0.0,-0.0,1.0,0.0,1566.3218994140625,1566.3218994140625,1566.3218994140625,1566.3218994140625
105.40410614013672,1037.44921875,-0.008956363424658775,970.9642333984375,-0.9828059584255106,-2.2032425066146284,-0.0835575900705997,-0.0003515846619848162,-0.0003665313124656677,-8.140870340866968e-05,-0.055200301110744476,0.9018473029136658,-0.05717673525214195,-1.0,0.0,0.0,-0.0,1.0,0.0,1566.3218994140625,1566.3218994140625,1566.3218994140625,1566.3218994140625
105.41410827636719,1037.44921875,-0.008955741301178932,970.9642333984375,-0.9831919733436346,-2.203632500748186,-0.0842011750410122,-0.0003433031961321831,-0.0003689080476760864,-9.044757462106645e-05,-0.07275529950857162,0.8802555203437805,-0.058220505714416504,-1.0,0.0,0.0,-0.0,1.0,0.0,1566.3218994140625,1566.3218994140625,1566.3218994140625,1566.3218994140625
105.42411041259766,1037.44921875,-0.008955946192145348,970.9642333984375,-0.9828256380868903,-2.2040287319562433,-0.08480571420704239,-0.0003492129035294056,-0.0003643110394477844,-8.172231900971383e-05,-0.05490809679031372,0.8956841230392456,-0.057774677872657776,-1.0,0.0,0.0,-0.0,1.0,0.0,1566.3218994140625,1566.3218994140625,1566.3218994140625,1566.3218994140625
105.43411254882812,1037.44921875,-0.008956782519817352,970.9642333984375,-0.9826107455857988,-2.204426775835443,-0.08362368668748663,-0.00042868079617619514,-0.0004294067621231079,-8.889946911949664e-05,-0.06391052901744843,1.084729552268982,-0.06058132275938988,-1.0,0.0,0.0,-0.0,1.0,0.0,1566.3218994140625,1566.3218994140625,1566.3218994140625,1566.3218994140625
105.4441146850586,1037.44921875,-0.008955815806984901,970.9642333984375,-0.9823543947811824,-2.2048091047288514,-0.08329430869016378,-0.00038572982884943485,-0.00033499300479888916,-6.30220165476203e-05,-0.004978444427251816,0.9784760475158691,-0.05927901342511177,-1.0,0.0,0.0,-0.0,1.0,0.0,1566.3218994140625,1566.3218994140625,1566.3218994140625,1566.3218994140625
105.45411682128906,1037.44921875,-0.00895555317401886,970.9642333984375,-0.9828528460720425,-2.205191971536991,-0.08299819940588594,-0.0003842801379505545,-0.0004059523344039917,-9.533720731269568e-05,-0.08087924867868423,0.9781799912452698,-0.05927794426679611,-1.0,0.0,0.0,-0.0,1.0,0.0,1566.3218994140625,1566.3218994140625,1566.3218994140625,1566.3218994140625
105.46411895751953,1037.44921875,-0.008955772966146469,970.9642333984375,-0.9824892501262853,-2.205581013643335,-0.08356029224165887,-0.00035040019429288805,-0.00036541372537612915,-8.155941759468988e-05,-0.05500754714012146,0.898786723613739,-0.05746893957257271,-1.0,0.0,0.0,-0.0,1.0,0.0,1566.3218994140625,1566.3218994140625,1566.3218994140625,1566.3218994140625
105.47412109375,1037.44921875,-0.008956318721175194,970.9642333984375,-0.982233128046946,-2.205976684453833,-0.08326861103222812,-0.0003889490617439151,-0.00040020793676376343,-8.674769196659327e-05,-0.062873974442482,0.9904430508613586,-0.059101980179548264,-1.0,0.0,0.0,-0.0,1.0,0.0,1566.3218994140625,1566.3218994140625,1566.3218994140625,1566.3218994140625
105.48412322998047,1037.44921875,-0.008956048637628555,970.9642333984375,-0.9827323578163366,-2.2063620289536043,-0.08298758035378632,-0.0003838607808575034,-0.00040556490421295166,-9.541095641907305e-05,-0.08083775639533997,0.9770915508270264,-0.05938492715358734,-1.0,0.0,0.0,-0.0,1.0,0.0,1566.3218994140625,1566.3218994140625,1566.3218994140625,1566.3218994140625
105.49412536621094,1037.44921875,-0.008956285193562508,970.9642333984375,-0.9823687360637114,-2.2067512384845154,-0.0835501561316203,-0.00035038572968915105,-0.0003654062747955322,-8.156460535246879e-05,-0.05499052256345749,0.8987517356872559,-0.057472020387649536,-1.0,0.0,0.0,-0.0,1.0,0.0,1566.3218994140625,1566.3218994140625,1566.3218994140625,1566.3218994140625
105.5041275024414,1037.44921875,-0.008956000208854675,970.9642333984375,-0.9828651627677691,-2.207143327620797,-0.0833091627009346,-0.00038273492828011513,-0.0004045143723487854,-9.555913129588589e-05,-0.08069302886724472,0.9741719365119934,-0.05966731905937195,-1.0,0.0,0.0,-0.0,1.0,0.0,1566.3218994140625,1566.3218994140625,1566.3218994140625,1566.3218994140625
105.51412963867188,1037.44921875,-0.008956220000982285,970.9642333984375,-0.9825014141685929,-2.2075328110069536,-0.08387306508653075,-0.00035034934990108013,-0.0003653690218925476,-8.157176489476115e-05,-0.054976481944322586,0.8986521363258362,-0.05748327821493149,-1.0,0.0,0.0,-0.0,1.0,0.0,1566.3218994140625,1566.3218994140625,1566.3218994140625,1566.3218994140625
105.52413177490234,1037.44921875,-0.008955935016274452,970.9642333984375,-0.9829979445301464,-2.207924903051791,-0.08363226431834503,-0.0003827314358204603,-0.0004045069217681885,-9.556033182889223e-05,-0.0806785523891449,0.9741587042808533,-0.05966978147625923,-1.0,0.0,0.0,-0.0,1.0,0.0,1566.3218994140625,1566.3218994140625,1566.3218994140625,1566.3218994140625
105.53413391113281,1037.44921875,-0.008956152945756912,970.9642333984375,-0.9826342981890092,-2.2083143859269976,-0.08419614007287318,-0.00035035263863392174,-0.0003653690218925476,-8.157253614626825e-05,-0.054962582886219025,0.8986555933952332,-0.05748530104756355,-1.0,0.0,0.0,-0.0,1.0,0.0,1566.3218994140625,1566.3218994140625,1566.3218994140625,1566.3218994140625
105.54413604736328,1037.44921875,-0.008955869823694229,970.9642333984375,-0.9831307235669664,-2.2087064785762647,-0.08395528107853789,-0.00038273632526397705,-0.0004045069217681885,-9.555997530696914e-05,-0.08066155761480331,0.9741660952568054,-0.05967177450656891,-1.0,0.0,0.0,-0.0,1.0,0.0,1566.3218994140625,1566.3218994140625,1566.3218994140625,1566.3218994140625
105.55413818359375,1037.44921875,-0.008956089615821838,970.9642333984375,-0.9827669663459297,-2.209095960634346,-0.08451911274786793,-0.0003503560437820852,-0.0003653690218925476,-8.157560660038143e-05,-0.054955072700977325,0.8986594080924988,-0.05748700723052025,-1.0,0.0,0.0,-0.0,1.0,0.0,1566.3218994140625,1566.3218994140625,1566.3218994140625,1566.3218994140625
105.56414031982422,1037.44921875,-0.008956922218203545,970.9642333984375,-0.9825519280553106,-2.209493785057109,-0.08333633598433936,-0.00042869587196037173,-0.00042941421270370483,-8.889492892194539e-05,-0.06380236893892288,1.084788203239441,-0.060571592301130295,-1.0,0.0,0.0,-0.0,1.0,0.0,1566.3218994140625,1566.3218994140625,1566.3218994140625,1566.3218994140625
105.57414245605469,1037.44921875,-0.008955618366599083,970.9642333984375,-0.9821846743301224,-2.2098742435216647,-0.08389354022270272,-0.0003462327877059579,-0.0002993270754814148,-5.792668162030168e-05,0.003103790804743767,0.8844137191772461,-0.057839490473270416,-1.0,0.0,0.0,-0.0,1.0,0.0,1566.3218994140625,1566.3218994140625,1566.3218994140625,1566.3218994140625
105.58414459228516,1037.44921875,-0.008955340832471848,970.9642333984375,-0.9826802027159877,-2.21026408055023,-0.08363862602753612,-0.00038312404649332166,-0.00040487200021743774,-9.549358946969733e-05,-0.08065014332532883,0.9751878380775452,-0.059567827731370926,-1.0,0.0,0.0,-0.0,1.0,0.0,1566.3218994140625,1566.3218994140625,1566.3218994140625,1566.3218994140625
105.59414672851562,1037.44921875,-0.008955558761954308,970.9642333984375,-0.9823165487676379,-2.210653346651695,-0.08420229799876756,-0.0003503546176943928,-0.0003653690218925476,-8.157513366313651e-05,-0.05492989718914032,0.8986696600914001,-0.05747964605689049,-1.0,0.0,0.0,-0.0,1.0,0.0,1566.3218994140625,1566.3218994140625,1566.3218994140625,1566.3218994140625
105.6041488647461,1037.44921875,-0.00895637832581997,970.9642333984375,-0.9821014311660075,-2.2110510128620238,-0.08301954131983016,-0.0004286926123313606,-0.00042941421270370483,-8.889890159480274e-05,-0.06377553939819336,1.0847924947738647,-0.06056763604283333,-1.0,0.0,0.0,-0.0,1.0,0.0,1566.3218994140625,1566.3218994140625,1566.3218994140625,1566.3218994140625
105.61415100097656,1037.44921875,-0.00895649753510952,970.9642333984375,-0.9832508374871617,-2.2114233250190267,-0.08358707125818783,-0.0003449261421337724,-0.00044273585081100464,-0.00012237722694408149,-0.1489289402961731,0.8879558444023132,-0.05743953585624695,-1.0,0.0,0.0,-0.0,1.0,0.0,1566.3218994140625,1566.3218994140625,1566.3218994140625,1566.3218994140625
105.62415313720703,1037.44921875,-0.008956694975495338,970.9642333984375,-0.9828855670547184,-2.211823359332342,-0.08421167446663282,-0.0003486635978333652,-0.0003637745976448059,-8.184467151295394e-05,-0.05475345999002457,0.8942433595657349,-0.05794103071093559,-1.0,0.0,0.0,-0.0,1.0,0.0,1566.3218994140625,1566.3218994140625,1566.3218994140625,1566.3218994140625
105.6341552734375,1037.44921875,-0.00895608775317669,970.9642333984375,-0.9832712354975536,-2.212213978381209,-0.08485898987105087,-0.000343200983479619,-0.00036879628896713257,-9.047439380083233e-05,-0.07261143624782562,0.8799962401390076,-0.058250002562999725,-1.0,0.0,0.0,-0.0,1.0,0.0,1566.3218994140625,1566.3218994140625,1566.3218994140625,1566.3218994140625
105.64415740966797,1037.44921875,-0.008956192061305046,970.9642333984375,-0.9822981295193546,-2.212618248950996,-0.08368146203218997,-0.00042907914030365646,-0.0003574267029762268,-5.675068678101525e-05,0.012287500314414501,1.0822701454162598,-0.060878217220306396,-1.0,0.0,0.0,-0.0,1.0,0.0,1566.3218994140625,1566.3218994140625,1566.3218994140625,1566.3218994140625
105.65415954589844,1037.44921875,-0.008955944329500198,970.9642333984375,-0.9827986234731907,-2.2129921614607935,-0.08333619917737306,-0.00038564251735806465,-0.0004072338342666626,-9.512761607766151e-05,-0.08087987452745438,0.9817688465118408,-0.05889833718538284,-1.0,0.0,0.0,-0.0,1.0,0.0,1566.3218994140625,1566.3218994140625,1566.3218994140625,1566.3218994140625
105.6641616821289,1037.44921875,-0.008956164121627808,970.9642333984375,-0.9824348966944644,-2.21338098174425,-0.08389748282701398,-0.00035041788942180574,-0.0003654211759567261,-8.156262629199773e-05,-0.054886024445295334,0.8988479971885681,-0.05745867267251015,-1.0,0.0,0.0,-0.0,1.0,0.0,1566.3218994140625,1566.3218994140625,1566.3218994140625,1566.3218994140625
105.67416381835938,1037.44921875,-0.008955882862210274,970.9642333984375,-0.9829312213682616,-2.2137730763881036,-0.08365693648292276,-0.00038272253004834056,-0.0004044845700263977,-9.556746226735413e-05,-0.08057641237974167,0.974151074886322,-0.05966976657509804,-1.0,0.0,0.0,-0.0,1.0,0.0,1566.3218994140625,1566.3218994140625,1566.3218994140625,1566.3218994140625
105.68416595458984,1037.44921875,-0.008956100791692734,970.9642333984375,-0.982567430435559,-2.2141625625558614,-0.08422125826975772,-0.00035033616586588323,-0.00036534667015075684,-8.157932461472228e-05,-0.05486606806516647,0.898625373840332,-0.05748608708381653,-1.0,0.0,0.0,-0.0,1.0,0.0,1566.3218994140625,1566.3218994140625,1566.3218994140625,1566.3218994140625
105.69416809082031,1037.44921875,-0.008955830708146095,970.9642333984375,-0.9830636351444825,-2.2145546092355812,-0.08398087874322066,-0.00038271903758868575,-0.0004044845700263977,-9.556342411087826e-05,-0.08054909110069275,0.9741366505622864,-0.05967254936695099,-1.0,0.0,0.0,-0.0,1.0,0.0,1566.3218994140625,1566.3218994140625,1566.3218994140625,1566.3218994140625
105.70417022705078,1037.44921875,-0.008956048637628555,970.9642333984375,-0.982699730792373,-2.2149440956768647,-0.08454528976166618,-0.000350334623362869,-0.00036534667015075684,-8.157900447258726e-05,-0.05485038831830025,0.8986170291900635,-0.05748782679438591,-1.0,0.0,0.0,-0.0,1.0,0.0,1566.3218994140625,1566.3218994140625,1566.3218994140625,1566.3218994140625
105.71417236328125,1037.44921875,-0.008956870064139366,970.9642333984375,-0.9824845429575941,-2.215341973405588,-0.08336285957104209,-0.0004286837065592408,-0.000429399311542511,-8.890342724043876e-05,-0.06369012594223022,1.0847692489624023,-0.06057251989841461,-1.0,0.0,0.0,-0.0,1.0,0.0,1566.3218994140625,1566.3218994140625,1566.3218994140625,1566.3218994140625
105.72417449951172,1037.44921875,-0.008955903351306915,970.9642333984375,-0.982227887909819,-2.2157243099667006,-0.08303429758237044,-0.0003856985131278634,-0.00033496320247650146,-6.303082045633346e-05,-0.004774058703333139,0.9784141778945923,-0.059279680252075195,-1.0,0.0,0.0,-0.0,1.0,0.0,1566.3218994140625,1566.3218994140625,1566.3218994140625,1566.3218994140625
105.73417663574219,1037.44921875,-0.00895601324737072,970.9642333984375,-0.9833737277649617,-2.2161013474628564,-0.08363037458505934,-0.0003441179287619889,-0.0004419758915901184,-0.0001224744482897222,-0.14873510599136353,0.8858801126480103,-0.05764096602797508,-1.0,0.0,0.0,-0.0,1.0,0.0,1566.3218994140625,1566.3218994140625,1566.3218994140625,1566.3218994140625
105.74417877197266,1037.44921875,-0.008956210687756538,970.9642333984375,-0.9830083031274467,-2.2165016050540753,-0.08425608355806607,-0.00034863181645050645,-0.0003637447953224182,-8.185657497961074e-05,-0.05468016490340233,0.8941674828529358,-0.057949911803007126,-1.0,0.0,0.0,-0.0,1.0,0.0,1566.3218994140625,1566.3218994140625,1566.3218994140625,1566.3218994140625
105.75418090820312,1037.44921875,-0.008956417441368103,970.9642333984375,-0.9826410846576639,-2.21689584947121,-0.08485313596622075,-0.0003493995754979551,-0.00036447495222091675,-8.1663514720276e-05,-0.05467798188328743,0.8962360620498657,-0.057687219232320786,-1.0,0.0,0.0,-0.0,1.0,0.0,1566.3218994140625,1566.3218994140625,1566.3218994140625,1566.3218994140625
105.7641830444336,1037.44921875,-0.00895642302930355,970.9642333984375,-0.9831784270679101,-2.2172903204675896,-0.08372245986433931,-0.0004224433796480298,-0.0004336535930633545,-9.772167686605826e-05,-0.08149465918540955,1.068428874015808,-0.0611482635140419,-1.0,0.0,0.0,-0.0,1.0,0.0,1566.3218994140625,1566.3218994140625,1566.3218994140625,1566.3218994140625
105.77418518066406,1037.44921875,-0.008956655859947205,970.9642333984375,-0.9828171621543811,-2.217672612167154,-0.08424386041119929,-0.00035154109355062246,-0.0003664642572402954,-8.141854777932167e-05,-0.05494341254234314,0.9017557501792908,-0.05718206986784935,-1.0,0.0,0.0,-0.0,1.0,0.0,1566.3218994140625,1566.3218994140625,1566.3218994140625,1566.3218994140625
105.78418731689453,1037.44921875,-0.008956033736467361,970.9642333984375,-0.9832026430665088,-2.2180628332968793,-0.08488870815265856,-0.00034326480817981064,-0.00036885589361190796,-9.046287595992908e-05,-0.07251743972301483,0.8801822662353516,-0.05822533741593361,-1.0,0.0,0.0,-0.0,1.0,0.0,1566.3218994140625,1566.3218994140625,1566.3218994140625,1566.3218994140625
105.794189453125,1037.44921875,-0.008956510573625565,970.9642333984375,-0.9828770543308886,-2.2184612718096286,-0.0846027981896508,-0.0003889361978508532,-0.0003934726119041443,-8.388049900531769e-05,-0.055643148720264435,0.9899968504905701,-0.059244122356176376,-1.0,0.0,0.0,-0.0,1.0,0.0,1566.3218994140625,1566.3218994140625,1566.3218994140625,1566.3218994140625
105.80419158935547,1037.44921875,-0.008956516161561012,970.9642333984375,-0.9834170714122461,-2.2188485960700737,-0.08342936980040322,-0.00042364149703644216,-0.0004347860813140869,-9.756036888575181e-05,-0.08160131424665451,1.0715440511703491,-0.06084464490413666,-1.0,0.0,0.0,-0.0,1.0,0.0,1566.3218994140625,1566.3218994140625,1566.3218994140625,1566.3218994140625
105.81419372558594,1037.44921875,-0.008956750854849815,970.9642333984375,-0.9830558218742182,-2.2192306669170905,-0.08394966398936379,-0.0003515688586048782,-0.00036650151014328003,-8.14163577160798e-05,-0.05492684245109558,0.9018363356590271,-0.057173244655132294,-1.0,0.0,0.0,-0.0,1.0,0.0,1566.3218994140625,1566.3218994140625,1566.3218994140625,1566.3218994140625
105.8241958618164,1037.44921875,-0.00895543023943901,970.9642333984375,-0.9826829492862601,-2.21962479663325,-0.08458941475783574,-0.00034391466761007905,-0.0002971366047859192,-5.8239347708877176e-05,0.003535917028784752,0.8784021735191345,-0.05842385068535805,-1.0,0.0,0.0,-0.0,1.0,0.0,1566.3218994140625,1566.3218994140625,1566.3218994140625,1566.3218994140625
105.83419799804688,1037.44921875,-0.00895625352859497,970.9642333984375,-0.982466752024046,-2.2200208680647147,-0.08339551796971958,-0.0004290022188797593,-0.000429689884185791,-8.885432907845825e-05,-0.06361225992441177,1.0856045484542847,-0.06049336493015289,-1.0,0.0,0.0,-0.0,1.0,0.0,1566.3218994140625,1566.3218994140625,1566.3218994140625,1566.3218994140625
105.84420013427734,1037.44921875,-0.008956002071499825,970.9642333984375,-0.982968337418388,-2.2203990224081434,-0.08307212119393363,-0.00038504262920469046,-0.0004066675901412964,-9.52623740886338e-05,-0.08072911202907562,0.9801928997039795,-0.0590793751180172,-1.0,0.0,0.0,-0.0,1.0,0.0,1566.3218994140625,1566.3218994140625,1566.3218994140625,1566.3218994140625
105.85420227050781,1037.44921875,-0.008956221863627434,970.9642333984375,-0.9826044465287014,-2.220788067081183,-0.08363450884125867,-0.00035038418718613684,-0.0003653913736343384,-8.15746170701459e-05,-0.054761797189712524,0.8987764716148376,-0.057466771453619,-1.0,0.0,0.0,-0.0,1.0,0.0,1566.3218994140625,1566.3218994140625,1566.3218994140625,1566.3218994140625
105.86420440673828,1037.44921875,-0.008955597877502441,970.9642333984375,-0.9829898854194297,-2.221178510287733,-0.08428072871342154,-0.00034322188002988696,-0.0003688111901283264,-9.047269850270823e-05,-0.07246546447277069,0.8800871968269348,-0.05823276564478874,-1.0,0.0,0.0,-0.0,1.0,0.0,1566.3218994140625,1566.3218994140625,1566.3218994140625,1566.3218994140625
105.87420654296875,1037.44921875,-0.008955800905823708,970.9642333984375,-0.9826230063660765,-2.2215747497849683,-0.08488644997277907,-0.00034917303128167987,-0.00036425143480300903,-8.17384134279564e-05,-0.054606758058071136,0.895616352558136,-0.05777805671095848,-1.0,0.0,0.0,-0.0,1.0,0.0,1566.3218994140625,1566.3218994140625,1566.3218994140625,1566.3218994140625
105.88420867919922,1037.44921875,-0.008956624194979668,970.9642333984375,-0.98240763981121,-2.22197285507885,-0.08370567206444976,-0.0004286369658075273,-0.0004293471574783325,-8.891768084140494e-05,-0.06355705857276917,1.0846556425094604,-0.06058403104543686,-1.0,0.0,0.0,-0.0,1.0,0.0,1566.3218994140625,1566.3218994140625,1566.3218994140625,1566.3218994140625
105.89421081542969,1037.44921875,-0.008956383913755417,970.9642333984375,-0.9829092108752703,-2.222350963374041,-0.08338270885155331,-0.00038503215182572603,-0.0004066452383995056,-9.52667323872447e-05,-0.08069247007369995,0.9801644086837769,-0.0590834766626358,-1.0,0.0,0.0,-0.0,1.0,0.0,1566.3218994140625,1566.3218994140625,1566.3218994140625,1566.3218994140625
105.90421295166016,1037.44921875,-0.008955772966146469,970.9642333984375,-0.9832978473434794,-2.2227364316605134,-0.08399593002667347,-0.00034416792914271355,-0.0003696829080581665,-9.038574353326112e-05,-0.07257203012704849,0.8825022578239441,-0.058031681925058365,-1.0,0.0,0.0,-0.0,1.0,0.0,1566.3218994140625,1566.3218994140625,1566.3218994140625,1566.3218994140625
105.91421508789062,1037.44921875,-0.008955975994467735,970.9642333984375,-0.9829310843284145,-2.2231326664241866,-0.0846007957372458,-0.0003491952666081488,-0.0003642737865447998,-8.17370237200521e-05,-0.05458755046129227,0.8956803679466248,-0.05777226760983467,-1.0,0.0,0.0,-0.0,1.0,0.0,1566.3218994140625,1566.3218994140625,1566.3218994140625,1566.3218994140625
105.9242172241211,1037.44921875,-0.0089561827480793,970.9642333984375,-0.9825637251936646,-2.2235266948543813,-0.08519774264616077,-0.00034939940087497234,-0.00036447495222091675,-8.167044870788231e-05,-0.05457630008459091,0.8962469696998596,-0.05768328160047531,-1.0,0.0,0.0,-0.0,1.0,0.0,1566.3218994140625,1566.3218994140625,1566.3218994140625,1566.3218994140625
105.93421936035156,1037.44921875,-0.008956175297498703,970.9642333984375,-0.9831009203485547,-2.2239212233367094,-0.08406754187736602,-0.0004224283329676837,-0.00043364614248275757,-9.772639168659225e-05,-0.0813581719994545,1.0684012174606323,-0.061149563640356064,-1.0,0.0,0.0,-0.0,1.0,0.0,1566.3218994140625,1566.3218994140625,1566.3218994140625,1566.3218994140625
105.94422149658203,1037.44921875,-0.008956408128142357,970.9642333984375,-0.9827395083265094,-2.224303517290383,-0.08458938607650207,-0.0003515274729579687,-0.00036644935607910156,-8.142309525283054e-05,-0.05482553318142891,0.9017287492752075,-0.05718383193016052,-1.0,0.0,0.0,-0.0,1.0,0.0,1566.3218994140625,1566.3218994140625,1566.3218994140625,1566.3218994140625
105.9542236328125,1037.44921875,-0.008956138044595718,970.9642333984375,-0.9832355303152253,-2.2246953466843493,-0.08434850483212121,-0.0003827303880825639,-0.0004044845700263977,-9.557102748658508e-05,-0.08037710934877396,0.9741876721382141,-0.059666093438863754,-1.0,0.0,0.0,-0.0,1.0,0.0,1566.3218994140625,1566.3218994140625,1566.3218994140625,1566.3218994140625
105.96422576904297,1037.44921875,-0.008956355974078178,970.9642333984375,-0.9828714543487437,-2.225084838403464,-0.08491358912823575,-0.000350314105162397,-0.00036532431840896606,-8.158876880770549e-05,-0.05467802658677101,0.8985772728919983,-0.05749208480119705,-1.0,0.0,0.0,-0.0,1.0,0.0,1566.3218994140625,1566.3218994140625,1566.3218994140625,1566.3218994140625
105.97422790527344,1037.44921875,-0.008956346660852432,970.9642333984375,-0.983408680789885,-2.225479142729676,-0.08378263453681345,-0.00042244739597663283,-0.0004336610436439514,-9.772367047844455e-05,-0.08133096992969513,1.068459153175354,-0.061144061386585236,-1.0,0.0,0.0,-0.0,1.0,0.0,1566.3218994140625,1566.3218994140625,1566.3218994140625,1566.3218994140625
105.9842300415039,1037.44921875,-0.008956579491496086,970.9642333984375,-0.9830472604444553,-2.225861439900228,-0.08430458824083305,-0.00035152322379872203,-0.00036644935607910156,-8.142845763359219e-05,-0.05480916053056717,0.9017235040664673,-0.05718567967414856,-1.0,0.0,0.0,-0.0,1.0,0.0,1566.3218994140625,1566.3218994140625,1566.3218994140625,1566.3218994140625
105.99423217773438,1037.44921875,-0.008955957368016243,970.9642333984375,-0.9834325763380071,-2.226251668417303,-0.08495008255717797,-0.0003432431258261204,-0.0003688335418701172,-9.046872582985088e-05,-0.07237644493579865,0.8801430463790894,-0.05822891741991043,-1.0,0.0,0.0,-0.0,1.0,0.0,1566.3218994140625,1566.3218994140625,1566.3218994140625,1566.3218994140625
106.00423431396484,1037.44921875,-0.008955787867307663,970.9642333984375,-0.9824180483460941,-2.22665395073201,-0.08466471952262081,-0.0003893020038958639,-0.0003281906247138977,-5.4617990826955065e-05,0.013543790206313133,0.9878439903259277,-0.059418343007564545,-1.0,0.0,0.0,-0.0,1.0,0.0,1566.3218994140625,1566.3218994140625,1566.3218994140625,1566.3218994140625
106.01423645019531,1037.44921875,-0.008956629782915115,970.9642333984375,-0.982204064752012,-2.2270408530003767,-0.0834214148994872,-0.0004303690802771598,-0.0004309713840484619,-8.864109986461699e-05,-0.06360701471567154,1.089206576347351,-0.060110073536634445,-1.0,0.0,0.0,-0.0,1.0,0.0,1566.3218994140625,1566.3218994140625,1566.3218994140625,1566.3218994140625
106.02423858642578,1037.44921875,-0.008956389501690865,970.9642333984375,-0.9827055722961461,-2.227418734742813,-0.0830970420279583,-0.0003850660577882081,-0.0004066750407218933,-9.526230132905766e-05,-0.08060430735349655,0.9802758097648621,-0.059066757559776306,-1.0,0.0,0.0,-0.0,1.0,0.0,1566.3218994140625,1566.3218994140625,1566.3218994140625,1566.3218994140625
106.03424072265625,1037.44921875,-0.008955776691436768,970.9642333984375,-0.9830940677330519,-2.2278042048647424,-0.08371069776907794,-0.0003441496519371867,-0.00036966055631637573,-9.039084397954866e-05,-0.07248999923467636,0.8824743628501892,-0.05802975967526436,-1.0,0.0,0.0,-0.0,1.0,0.0,1566.3218994140625,1566.3218994140625,1566.3218994140625,1566.3218994140625
106.04424285888672,1037.44921875,-0.008955979719758034,970.9642333984375,-0.9827270576492297,-2.228200442548629,-0.08431594923224897,-0.00034917908487841487,-0.00036425143480300903,-8.173812238965183e-05,-0.05449235066771507,0.895654559135437,-0.05777138099074364,-1.0,0.0,0.0,-0.0,1.0,0.0,1566.3218994140625,1566.3218994140625,1566.3218994140625,1566.3218994140625
106.05424499511719,1037.44921875,-0.008956190198659897,970.9642333984375,-0.9823596662207688,-2.228594473648458,-0.08491323266578216,-0.000349386187735945,-0.0003644675016403198,-8.16760293673724e-05,-0.05449110269546509,0.8962288498878479,-0.0576825812458992,-1.0,0.0,0.0,-0.0,1.0,0.0,1566.3218994140625,1566.3218994140625,1566.3218994140625,1566.3218994140625
106.06424713134766,1037.44921875,-0.008956179022789001,970.9642333984375,-0.9828966911406933,-2.2289890065275584,-0.08378345099294085,-0.00042241165647283196,-0.0004336312413215637,-9.773568308446556e-05,-0.08126763254404068,1.068379282951355,-0.061148203909397125,-1.0,0.0,0.0,-0.0,1.0,0.0,1566.3218994140625,1566.3218994140625,1566.3218994140625,1566.3218994140625
106.07424926757812,1037.44921875,-0.008956411853432655,970.9642333984375,-0.982535143284053,-2.229371303242415,-0.08430563659440073,-0.00035151297925040126,-0.0003664270043373108,-8.14303639344871e-05,-0.05474507063627243,0.9017079472541809,-0.05718280375003815,-1.0,0.0,0.0,-0.0,1.0,0.0,1566.3218994140625,1566.3218994140625,1566.3218994140625,1566.3218994140625
106.0842514038086,1037.44921875,-0.008956126868724823,970.9642333984375,-0.9830310744443075,-2.2297631867104575,-0.08406510306630471,-0.0003827170585282147,-0.00040446966886520386,-9.55755531322211e-05,-0.08028332144021988,0.9741724729537964,-0.059664949774742126,-1.0,0.0,0.0,-0.0,1.0,0.0,1566.3218994140625,1566.3218994140625,1566.3218994140625,1566.3218994140625
106.09425354003906,1037.44921875,-0.008956361562013626,970.9642333984375,-0.9826668570339538,-2.2301526257545987,-0.08463017341740109,-0.0003503106127027422,-0.0003653094172477722,-8.159541175700724e-05,-0.054596852511167526,0.8985822796821594,-0.057490769773721695,-1.0,0.0,0.0,-0.0,1.0,0.0,1566.3218994140625,1566.3218994140625,1566.3218994140625,1566.3218994140625
106.10425567626953,1037.44921875,-0.008956078439950943,970.9642333984375,-0.9831627705705895,-2.2305447317068845,-0.08439056599653666,-0.000382694648578763,-0.0004044473171234131,-9.558358578942716e-05,-0.0802680104970932,0.9741039872169495,-0.059677157551050186,-1.0,0.0,0.0,-0.0,1.0,0.0,1566.3218994140625,1566.3218994140625,1566.3218994140625,1566.3218994140625
106.1142578125,1037.44921875,-0.008956296369433403,970.9642333984375,-0.9827985585227528,-2.2309342227999847,-0.08495564939487264,-0.000350312446244061,-0.0003653094172477722,-8.159481512848288e-05,-0.05457901582121849,0.8985810875892639,-0.05749305710196495,-1.0,0.0,0.0,-0.0,1.0,0.0,1566.3218994140625,1566.3218994140625,1566.3218994140625,1566.3218994140625
106.12425994873047,1037.44921875,-0.008956285193562508,970.9642333984375,-0.9833357361152815,-2.2313285284134095,-0.08382470654982897,-0.00042244617361575365,-0.0004336610436439514,-9.773248166311532e-05,-0.08122223615646362,1.0684679746627808,-0.06114434823393822,-1.0,0.0,0.0,-0.0,1.0,0.0,1566.3218994140625,1566.3218994140625,1566.3218994140625,1566.3218994140625
106.13426208496094,1037.44921875,-0.00895651988685131,970.9642333984375,-0.9829742887198448,-2.2317108250345865,-0.0843466549037807,-0.000351521885022521,-0.0003664344549179077,-8.143454033415765e-05,-0.054710377007722855,0.9017283320426941,-0.05718636140227318,-1.0,0.0,0.0,-0.0,1.0,0.0,1566.3218994140625,1566.3218994140625,1566.3218994140625,1566.3218994140625
106.1442642211914,1037.44921875,-0.008955897763371468,970.9642333984375,-0.9833594648358933,-2.23210105365115,-0.08499216657571637,-0.000343242019880563,-0.00036881864070892334,-9.047570347320288e-05,-0.07228227704763412,0.8801510334014893,-0.05822937935590744,-1.0,0.0,0.0,-0.0,1.0,0.0,1566.3218994140625,1566.3218994140625,1566.3218994140625,1566.3218994140625
106.15426635742188,1037.44921875,-0.008955728262662888,970.9642333984375,-0.9823448436278004,-2.232503335248319,-0.08470679608691925,-0.0003893027314916253,-0.00032817572355270386,-5.462552871904336e-05,0.013648302294313908,0.9878476858139038,-0.059418998658657074,-1.0,0.0,0.0,-0.0,1.0,0.0,1566.3218994140625,1566.3218994140625,1566.3218994140625,1566.3218994140625
106.16426849365234,1037.44921875,-0.008955754339694977,970.9642333984375,-0.982883342271642,-2.232886820329116,-0.0835142382178939,-0.0004241550341248512,-0.00043526291847229004,-9.745828720042482e-05,-0.08133987337350845,1.0729515552520752,-0.06067737191915512,-1.0,0.0,0.0,-0.0,1.0,0.0,1566.3218994140625,1566.3218994140625,1566.3218994140625,1566.3218994140625
106.17427062988281,1037.44921875,-0.00895598903298378,970.9642333984375,-0.9825218157973364,-2.2332686742047603,-0.08403446695040799,-0.000351566297467798,-0.00036647915840148926,-8.142596198013052e-05,-0.05468571186065674,0.9018582701683044,-0.057167548686265945,-1.0,0.0,0.0,-0.0,1.0,0.0,1566.3218994140625,1566.3218994140625,1566.3218994140625,1566.3218994140625
106.18427276611328,1037.44921875,-0.008955704048275948,970.9642333984375,-0.9830177594134192,-2.233660555370942,-0.08379377682869954,-0.0003827189211733639,-0.00040446966886520386,-9.558106830809265e-05,-0.0802176371216774,0.9741886258125305,-0.059664156287908554,-1.0,0.0,0.0,-0.0,1.0,0.0,1566.3218994140625,1566.3218994140625,1566.3218994140625,1566.3218994140625
106.19427490234375,1037.44921875,-0.008955921977758408,970.9642333984375,-0.9826534226411102,-2.234050049490399,-0.08435908787381018,-0.0003503012121655047,-0.00036529451608657837,-8.159743447322398e-05,-0.0545259527862072,0.8985692262649536,-0.057491183280944824,-1.0,0.0,0.0,-0.0,1.0,0.0,1566.3218994140625,1566.3218994140625,1566.3218994140625,1566.3218994140625
106.20427703857422,1037.44921875,-0.008956469595432281,970.9642333984375,-0.9823966954795246,-2.2344457320029516,-0.08406910518800911,-0.0003888933570124209,-0.0004001334309577942,-8.677903679199517e-05,-0.0623522624373436,0.9903438091278076,-0.05911184474825859,-1.0,0.0,0.0,-0.0,1.0,0.0,1566.3218994140625,1566.3218994140625,1566.3218994140625,1566.3218994140625
106.21427917480469,1037.44921875,-0.008956199511885643,970.9642333984375,-0.982895321790851,-2.234831308345418,-0.0837897358577623,-0.0003838083939626813,-0.0004054829478263855,-9.544234490022063e-05,-0.08032497018575668,0.9770110845565796,-0.05939355865120888,-1.0,0.0,0.0,-0.0,1.0,0.0,1566.3218994140625,1566.3218994140625,1566.3218994140625,1566.3218994140625
106.22428131103516,1037.44921875,-0.008956417441368103,970.9642333984375,-0.9825311077304484,-2.235220579035207,-0.08435393588771395,-0.00035033110179938376,-0.000365331768989563,-8.159637218341231e-05,-0.05451741814613342,0.8986523747444153,-0.057480983436107635,-1.0,0.0,0.0,-0.0,1.0,0.0,1566.3218994140625,1566.3218994140625,1566.3218994140625,1566.3218994140625
106.23428344726562,1037.44921875,-0.008956147357821465,970.9642333984375,-0.983026911402087,-2.235612633276431,-0.08411455950393941,-0.00038268466596491635,-0.00040443986654281616,-9.559067984810099e-05,-0.08018120378255844,0.9740965366363525,-0.059676237404346466,-1.0,0.0,0.0,-0.0,1.0,0.0,1566.3218994140625,1566.3218994140625,1566.3218994140625,1566.3218994140625
106.2442855834961,1037.44921875,-0.008956367149949074,970.9642333984375,-0.9826625596283484,-2.2360021282198055,-0.0846800844368513,-0.00035029574064537883,-0.00036528706550598145,-8.159998105838895e-05,-0.05449410155415535,0.8985543251037598,-0.05749248340725899,-1.0,0.0,0.0,-0.0,1.0,0.0,1566.3218994140625,1566.3218994140625,1566.3218994140625,1566.3218994140625
106.25428771972656,1037.44921875,-0.008956082165241241,970.9642333984375,-0.983158372545376,-2.2363942374677004,-0.08444080703680092,-0.00038268446223810315,-0.00040443241596221924,-9.559089812682942e-05,-0.08016498386859894,0.9740912914276123,-0.059678465127944946,-1.0,0.0,0.0,-0.0,1.0,0.0,1566.3218994140625,1566.3218994140625,1566.3218994140625,1566.3218994140625
106.26428985595703,1037.44921875,-0.00895630195736885,970.9642333984375,-0.9827940148843924,-2.236783732414442,-0.08500637663656717,-0.00035029451828449965,-0.00036529451608657837,-8.160292054526508e-05,-0.054486699402332306,0.8985474705696106,-0.05749410390853882,-1.0,0.0,0.0,-0.0,1.0,0.0,1566.3218994140625,1566.3218994140625,1566.3218994140625,1566.3218994140625
106.2742919921875,1037.44921875,-0.008956290781497955,970.9642333984375,-0.9833309216056941,-2.2371780422600263,-0.08387588178683646,-0.00042243150528520346,-0.00043363869190216064,-9.773872443474829e-05,-0.08110719174146652,1.0684446096420288,-0.06114558130502701,-1.0,0.0,0.0,-0.0,1.0,0.0,1566.3218994140625,1566.3218994140625,1566.3218994140625,1566.3218994140625
106.28429412841797,1037.44921875,-0.008956525474786758,970.9642333984375,-0.9829692247493924,-2.237560342361533,-0.0843982810481041,-0.0003515052667353302,-0.00036641955375671387,-8.144066669046879e-05,-0.05461256951093674,0.9016971588134766,-0.05718763917684555,-1.0,0.0,0.0,-0.0,1.0,0.0,1566.3218994140625,1566.3218994140625,1566.3218994140625,1566.3218994140625
106.29429626464844,1037.44921875,-0.00895591638982296,970.9642333984375,-0.9833543493017668,-2.237950521713945,-0.08504421071249739,-0.0003432278463151306,-0.0003688111901283264,-9.048124775290489e-05,-0.07218446582555771,0.8801276087760925,-0.05823071300983429,-1.0,0.0,0.0,-0.0,1.0,0.0,1566.3218994140625,1566.3218994140625,1566.3218994140625,1566.3218994140625
106.3042984008789,1037.44921875,-0.00895574688911438,970.9642333984375,-0.9823395169352109,-2.23835280715696,-0.08475941119596941,-0.00038928023423068225,-0.00032816082239151,-5.463057095766999e-05,0.013757794164121151,0.9877951145172119,-0.05942007899284363,-1.0,0.0,0.0,-0.0,1.0,0.0,1566.3218994140625,1566.3218994140625,1566.3218994140625,1566.3218994140625
106.31430053710938,1037.44921875,-0.008955758064985275,970.9642333984375,-0.9828779727926151,-2.2387363488895913,-0.08356725400132757,-0.0004241389688104391,-0.00043524056673049927,-9.746427531354129e-05,-0.08122384548187256,1.0729235410690308,-0.06067846715450287,-1.0,0.0,0.0,-0.0,1.0,0.0,1566.3218994140625,1566.3218994140625,1566.3218994140625,1566.3218994140625
106.32430267333984,1037.44921875,-0.008955992758274078,970.9642333984375,-0.982516302978636,-2.239118206617678,-0.08408796906561386,-0.00035154877696186304,-0.0003664642572402954,-8.143438026309013e-05,-0.05459342896938324,0.9018253087997437,-0.057168737053871155,-1.0,0.0,0.0,-0.0,1.0,0.0,1566.3218994140625,1566.3218994140625,1566.3218994140625,1566.3218994140625
106.33430480957031,1037.44921875,-0.008955707773566246,970.9642333984375,-0.9830121431408294,-2.23951009235346,-0.08384775569029541,-0.0003827030013781041,-0.00040445476770401,-9.558881720295176e-05,-0.0801156535744667,0.9741620421409607,-0.059665411710739136,-1.0,0.0,0.0,-0.0,1.0,0.0,1566.3218994140625,1566.3218994140625,1566.3218994140625,1566.3218994140625
